{
  "international": {
    "name": "International",
    "latitude": 0,
    "longitude": 0
  },
  "countries": [
    { "code": "ID", "name": "Indonesia", "latitude": -2.5, "longitude": 118.0, "aliases": ["Republic of Indonesia"] },
    { "code": "MY", "name": "Malaysia", "latitude": 4.2105, "longitude": 101.9758 },
    { "code": "SG", "name": "Singapore", "latitude": 1.3521, "longitude": 103.8198 },
    { "code": "TH", "name": "Thailand", "latitude": 15.87, "longitude": 100.9925 },
    { "code": "VN", "name": "Vietnam", "latitude": 14.0583, "longitude": 108.2772 },
    { "code": "PH", "name": "Philippines", "latitude": 12.8797, "longitude": 121.774 },
    { "code": "BN", "name": "Brunei", "latitude": 4.5353, "longitude": 114.7277 },
    { "code": "KH", "name": "Cambodia", "latitude": 12.5657, "longitude": 104.991 },
    { "code": "LA", "name": "Laos", "latitude": 19.8563, "longitude": 102.4955, "aliases": ["Lao People's Democratic Republic"] },
    { "code": "MM", "name": "Myanmar", "latitude": 21.9162, "longitude": 95.956, "aliases": ["Burma"] },
    { "code": "TL", "name": "Timor-Leste", "latitude": -8.8742, "longitude": 125.7275, "aliases": ["East Timor"] },

    { "code": "AU", "name": "Australia", "latitude": -25.2744, "longitude": 133.7751 },
    { "code": "NZ", "name": "New Zealand", "latitude": -40.9006, "longitude": 174.886 },
    { "code": "JP", "name": "Japan", "latitude": 36.2048, "longitude": 138.2529 },
    { "code": "KR", "name": "South Korea", "latitude": 35.9078, "longitude": 127.7669, "aliases": ["Republic of Korea"] },
    { "code": "CN", "name": "China", "latitude": 35.8617, "longitude": 104.1954 },
    { "code": "TW", "name": "Taiwan", "latitude": 23.6978, "longitude": 120.9605 },
    { "code": "HK", "name": "Hong Kong", "latitude": 22.3193, "longitude": 114.1694 },
    { "code": "IN", "name": "India", "latitude": 20.5937, "longitude": 78.9629 },
    { "code": "PK", "name": "Pakistan", "latitude": 30.3753, "longitude": 69.3451 },
    { "code": "BD", "name": "Bangladesh", "latitude": 23.685, "longitude": 90.3563 },
    { "code": "LK", "name": "Sri Lanka", "latitude": 7.8731, "longitude": 80.7718 },
    { "code": "NP", "name": "Nepal", "latitude": 28.3949, "longitude": 84.124 },

    { "code": "AE", "name": "United Arab Emirates", "latitude": 23.4241, "longitude": 53.8478, "aliases": ["UAE"] },
    { "code": "SA", "name": "Saudi Arabia", "latitude": 23.8859, "longitude": 45.0792 },
    { "code": "QA", "name": "Qatar", "latitude": 25.3548, "longitude": 51.1839 },
    { "code": "KW", "name": "Kuwait", "latitude": 29.3117, "longitude": 47.4818 },
    { "code": "OM", "name": "Oman", "latitude": 21.4735, "longitude": 55.9754 },
    { "code": "EG", "name": "Egypt", "latitude": 26.8206, "longitude": 30.8025 },
    { "code": "TR", "name": "Turkey", "latitude": 38.9637, "longitude": 35.2433 },
    { "code": "IL", "name": "Israel", "latitude": 31.0461, "longitude": 34.8516 },
    { "code": "IR", "name": "Iran", "latitude": 32.4279, "longitude": 53.688 },

    { "code": "GB", "name": "United Kingdom", "latitude": 55.3781, "longitude": -3.436, "aliases": ["UK", "Britain"] },
    { "code": "IE", "name": "Ireland", "latitude": 53.4129, "longitude": -8.2439 },
    { "code": "FR", "name": "France", "latitude": 46.2276, "longitude": 2.2137 },
    { "code": "DE", "name": "Germany", "latitude": 51.1657, "longitude": 10.4515 },
    { "code": "NL", "name": "Netherlands", "latitude": 52.1326, "longitude": 5.2913 },
    { "code": "BE", "name": "Belgium", "latitude": 50.5039, "longitude": 4.4699 },
    { "code": "ES", "name": "Spain", "latitude": 40.4637, "longitude": -3.7492 },
    { "code": "IT", "name": "Italy", "latitude": 41.8719, "longitude": 12.5674 },
    { "code": "PT", "name": "Portugal", "latitude": 39.3999, "longitude": -8.2245 },
    { "code": "SE", "name": "Sweden", "latitude": 60.1282, "longitude": 18.6435 },
    { "code": "NO", "name": "Norway", "latitude": 60.472, "longitude": 8.4689 },
    { "code": "FI", "name": "Finland", "latitude": 61.9241, "longitude": 25.7482 },
    { "code": "DK", "name": "Denmark", "latitude": 56.2639, "longitude": 9.5018 },
    { "code": "PL", "name": "Poland", "latitude": 51.9194, "longitude": 19.1451 },
    { "code": "CZ", "name": "Czechia", "latitude": 49.8175, "longitude": 15.473 },
    { "code": "CH", "name": "Switzerland", "latitude": 46.8182, "longitude": 8.2275 },
    { "code": "AT", "name": "Austria", "latitude": 47.5162, "longitude": 14.5501 },
    { "code": "RU", "name": "Russia", "latitude": 61.524, "longitude": 105.3188, "aliases": ["Russian Federation"] },
    { "code": "UA", "name": "Ukraine", "latitude": 48.3794, "longitude": 31.1656 },
    { "code": "GR", "name": "Greece", "latitude": 39.0742, "longitude": 21.8243 },

    { "code": "US", "name": "United States", "latitude": 37.0902, "longitude": -95.7129, "aliases": ["USA", "United States of America"] },
    { "code": "CA", "name": "Canada", "latitude": 56.1304, "longitude": -106.3468 },
    { "code": "MX", "name": "Mexico", "latitude": 23.6345, "longitude": -102.5528 },
    { "code": "BR", "name": "Brazil", "latitude": -14.235, "longitude": -51.9253 },
    { "code": "AR", "name": "Argentina", "latitude": -38.4161, "longitude": -63.6167 },
    { "code": "CL", "name": "Chile", "latitude": -35.6751, "longitude": -71.543 },
    { "code": "CO", "name": "Colombia", "latitude": 4.5709, "longitude": -74.2973 },
    { "code": "PE", "name": "Peru", "latitude": -9.19, "longitude": -75.0152 },
    { "code": "VE", "name": "Venezuela", "latitude": 6.4238, "longitude": -66.5897 },

    { "code": "ZA", "name": "South Africa", "latitude": -30.5595, "longitude": 22.9375 },
    { "code": "NG", "name": "Nigeria", "latitude": 9.082, "longitude": 8.6753 },
    { "code": "KE", "name": "Kenya", "latitude": -0.0236, "longitude": 37.9062 },
    { "code": "TZ", "name": "Tanzania", "latitude": -6.369, "longitude": 34.8888 },
    { "code": "ET", "name": "Ethiopia", "latitude": 9.145, "longitude": 40.4897 },
    { "code": "MA", "name": "Morocco", "latitude": 31.7917, "longitude": -7.0926 },
    { "code": "GH", "name": "Ghana", "latitude": 7.9465, "longitude": -1.0232 }
  ]
}
